id,name,city,Latitude,Longitude,image_url,comment,official,creator_user_id,type_id,favori
1,Treompan,Ploudalmézeau,48.5705177216782,-4.6642385116123,,"Grande plage avec plusieurs parking à l'Ouest. Lorsqu'il y a de la houle, le spot est principalement pratiqué par des véliplanchistes mais aussi quelques kitesurfers.",0,Officiel,1,0
2,Dunes de Saint-Marguerite,Landéda,48.5948373405776,-4.6059105723447,,"Spot idéal pour débuter en kitesurf ! En effet, à marée haute un bassin se rempli ce qui permet d'avoir pied sur une grande zone. 
Grand parking.",0,Officiel,1,0
3,La palue,Crozon,48.2040698150748,-4.54651506045484,,Grande plage très connue de la presque ile de Crozon,0,Officiel,1,0
4,Blanc-Sablons,Le Conquet,48.3696784917662,-4.76411652032804,,Spot de surf grande plage. Il faut une bonne orientation de la houle,0,Officiel,1,0
5,Vougot,Plouguerneau,48.6302737250629,-4.45662505162041,,"Grande plage de sable blanc avec plusieurs parkings. Peut être un peu ""clapoteux"" à marée haute.",0,Officiel,1,0
